City_ID,City,Country,Max Temp,Current Discription,Lat,Lng,Hotel Name
0,Bethel,US,76.41,scattered clouds,41.3712,-73.414,Courtyard by Marriott Danbury
1,Albany,US,79.81,overcast clouds,42.6001,-73.9662,
2,Port Blair,IN,82.8,broken clouds,11.6667,92.75,"Welcomhotel By ITC Hotels, Bay Island, Port Blair"
3,Luang Prabang,LA,80.58,overcast clouds,19.8856,102.1347,Villa Oasis
4,Obo,CF,79.7,light rain,5.3998,26.4869,
5,Lasa,IT,75.11,broken clouds,46.6166,10.7002,Pension Feldgärtenhof
10,Mount Pleasant,US,86.07,few clouds,32.7941,-79.8626,Best Western Patriots Point
15,Drensteinfurt,DE,71.22,overcast clouds,51.7953,7.7382,Boss von drensteinfurt
16,Oistins,BB,86.09,scattered clouds,13.0667,-59.5333,Butterfly Beach Hotel
17,Celestun,MX,80.73,clear sky,20.8667,-90.4,Posada Lilia
20,Nikolskoye,RU,73.29,overcast clouds,59.7035,30.7861,Tourist House - Sablino
22,Rikitea,PF,74.84,broken clouds,-23.1203,-134.9692,People ThankYou
27,Hami,CN,88.99,clear sky,42.8,93.45,Laoyutang Resort
28,Bereda,ES,82.42,few clouds,43.2686,-7.5406,Pazo de Verdes
32,Butaritari,KI,82.33,clear sky,3.0707,172.7902,Isles Sunset Lodge
35,Maragogi,BR,77.04,overcast clouds,-9.0122,-35.2225,Salinas do Maragogi All Inclusive Resort
37,Lethem,GY,82.33,broken clouds,3.3803,-59.7968,Savannah Inn
38,Georgetown,MY,84.15,scattered clouds,5.4112,100.3354,Cititel Penang
40,Hilo,US,73.13,overcast clouds,19.7297,-155.09,Hilo Hawaiian Hotel
41,Grand Gaube,MU,70.38,moderate rain,-20.0064,57.6608,Veranda Paul et Virginie Hotel & Spa
42,Hirara,JP,80.11,overcast clouds,24.8,125.2833,Hotel Atoll Emerald Miyakojima
44,Orange,US,71.8,broken clouds,33.7,-117.7675,Meadows
48,Hithadhoo,MV,83.14,light rain,-0.6,73.0833,Scoop Guest House
51,Ratnagiri,IN,80.65,overcast clouds,16.9833,73.3,Hotel Landmark
52,Port Alfred,ZA,80.31,scattered clouds,-33.5906,26.891,The Halyards Hotel
54,Hvittingfoss,NO,74.52,overcast clouds,59.4833,10.0167,Reinemoen
56,Avera,US,80.94,clear sky,33.194,-82.5271,
59,Jamestown,US,76.32,few clouds,42.097,-79.2353,Hampton Inn & Suites Jamestown
60,Saint George,US,85.53,clear sky,37.1041,-113.5841,Best Western Plus Abbey Inn
65,Kirovsk,UA,74.3,moderate rain,48.6375,38.6428,
66,Auki,SB,76.01,overcast clouds,-8.7676,160.7034,Auki Motel
67,Faanui,PF,78.67,broken clouds,-16.4833,-151.75,Bora-Bora Pearl Beach Resort & Spa
68,Goderich,CA,74.91,overcast clouds,43.7501,-81.7165,Harmony Inn
70,Port Elizabeth,ZA,71.89,few clouds,-33.918,25.5701,39 On Nile Guest House
73,Tura,IN,75.87,broken clouds,25.5198,90.2201,Hotel RIKMAN Continental
75,Muisne,EC,75.7,overcast clouds,0.6,-80.0333,Quinta Samay
77,Salalah,OM,78.89,light intensity drizzle,17.0151,54.0924,HAMDAN PLAZA HOTEL SALALAH
78,Panaba,MX,83.89,overcast clouds,21.2833,-88.2667,Posada rosario
79,Palmer,US,77.61,broken clouds,42.1584,-72.3287,Wedgewood Motel
80,Hesla,IN,80.1,overcast clouds,24.0667,85.8833,Khurshid Dhaba
82,Pemangkat,ID,81.93,overcast clouds,1.1667,108.9667,Ramah Kost KITA
84,Arraial Do Cabo,BR,73.36,scattered clouds,-22.9661,-42.0278,Pousada Porto Praia
86,Terre Haute,US,77.27,clear sky,39.4667,-87.4139,Drury Inn & Suites Terre Haute
87,Cabedelo,BR,83.07,scattered clouds,-6.9811,-34.8339,Hotel Pigalle
91,Nchelenge,ZM,80.83,clear sky,-9.3451,28.734,KD Travellers Home
93,Mbandaka,CD,88.29,broken clouds,0.0487,18.2603,Guest House Epervier
94,Sorong,ID,78.17,overcast clouds,-0.8833,131.25,waigo splash hotel
96,Darbhanga,IN,85.24,broken clouds,26.1667,85.9,Hotel Shyama Regency
98,Avarua,CK,73.45,broken clouds,-21.2078,-159.775,Paradise Inn
101,Talnakh,RU,70.97,clear sky,69.4865,88.3972,Talnakh Hotel
102,Manyana,BW,81.64,clear sky,-23.4,21.7167,
103,Nisia Floresta,BR,80.98,broken clouds,-6.0911,-35.2086,Rancho Crepusculo
104,Puerto Del Rosario,ES,80.28,scattered clouds,28.5004,-13.8627,Hotel JM Puerto del Rosario
106,Porto-Vecchio,FR,87.46,light rain,41.591,9.2795,Hôtel Le Goéland - Casa Santini
109,Souillac,MU,70.36,shower rain,-20.5167,57.5167,Shanti Maurice Resort & Spa
110,Lorengau,PG,80.82,scattered clouds,-2.0226,147.2712,Lorengau Harbourside Hotel
112,Bor,RU,89.53,scattered clouds,56.3567,44.0669,Oktyabrskaya Hotel
113,Pangoa,PE,77.36,clear sky,-12.1167,-73.0,
114,Minsk,BY,78.55,overcast clouds,53.9,27.5667,Minsk Hotel
115,Male,MV,83.5,overcast clouds,4.1748,73.5089,Hotel Octave Maldives
118,Sao Filipe,CV,80.28,few clouds,14.8961,-24.4956,Hotel Xaguate
119,Veraval,IN,81.68,overcast clouds,20.9,70.3667,Lords Inn Somnath
120,Kavieng,PG,81.64,broken clouds,-2.5744,150.7967,Nusa Island Retreat
121,Beatrice,US,72.45,clear sky,40.2681,-96.747,Victorian Inn Beatrice
123,Barra Do Garcas,BR,86.58,clear sky,-15.89,-52.2567,Hotel Pousada Tropical
125,Makokou,GA,78.93,light rain,0.5738,12.8642,Motel des voyageurs
126,Puerto Baquerizo Moreno,EC,70.29,broken clouds,-0.9,-89.6,Hotel los Algarrobos
129,Ribeira Grande,PT,75.6,scattered clouds,38.5167,-28.7,Quinta da Meia Eira
131,Nantucket,US,78.91,broken clouds,41.2835,-70.0995,Jared Coffin House
138,Bonthe,SL,81.72,overcast clouds,7.5264,-12.505,Bonthe Holiday Village
140,Ternate,ID,79.7,overcast clouds,0.8,127.4,Grand Dafam Bela Ternate
147,Rajauri,IN,78.73,broken clouds,33.3833,74.3,Hotel Ashoka
148,Butterworth,MY,84.25,scattered clouds,5.3991,100.3638,Cititel Penang
150,Cabo San Lucas,MX,85.51,overcast clouds,22.8909,-109.9124,Hotel Tesoro Los Cabos
151,Westport,US,76.28,overcast clouds,41.1415,-73.3579,The Westport Inn
155,Wielun,PL,76.89,broken clouds,51.221,18.5696,Zajazd Boryna
157,Chaltyr,RU,86.34,broken clouds,47.2848,39.4823,Частный дом
159,Japura,ID,79.32,overcast clouds,-0.3167,102.35,Rumah mbah Jamah
164,Faya,SA,84.72,overcast clouds,18.3851,42.4509,املاك خالد الشعشوع
165,Sambava,MG,73.87,few clouds,-14.2667,50.1667,Melrose
167,Murfreesboro,US,81.63,clear sky,35.8456,-86.3903,"Holiday Inn Express Murfreesboro Central, an IHG Hotel"
168,Lata,PT,85.05,clear sky,40.1629,-8.3327,Casa Maquia
169,Evanston,US,81.52,broken clouds,42.0411,-87.6901,Hilton Garden Inn Chicago North Shore/Evanston
172,Pasighat,IN,79.45,broken clouds,28.0667,95.3333,Siang Guest House
174,Alenquer,BR,88.14,broken clouds,-1.9417,-54.7383,Josilene Castro
175,Jacqueville,CI,78.71,few clouds,5.2052,-4.4146,Hotel Le Martin Pecheur
177,Puerto Ayora,EC,70.56,scattered clouds,-0.7393,-90.3518,Finch Bay Galapagos Hotel
179,Kapaa,US,79.12,few clouds,22.0752,-159.319,Sheraton Kauai Coconut Beach Resort
181,Sar-E Pul,AF,79.52,clear sky,35.8333,66.1667,
182,Bambous Virieux,MU,70.21,shower rain,-20.3428,57.7575,Casa Tia Villa
184,Praia Da Vitoria,PT,77.25,broken clouds,38.7333,-27.0667,Hotel Branco I
185,Guantanamo,CU,89.17,scattered clouds,20.1444,-75.2092,Hotel Guantánamo
186,Ponta Do Sol,PT,74.71,broken clouds,32.6667,-17.1,Hotel do Campo
187,Hopkinton,US,76.55,overcast clouds,41.4612,-71.7776,Stardust Motel
190,Ures,MX,81.28,overcast clouds,29.4333,-110.4,Hotel HACIENDA San Francisco
191,Sinnamary,GF,84.67,scattered clouds,5.3833,-52.95,ALETHEIA Appartement Sinnamary
192,Tra Vinh,VN,81.84,overcast clouds,9.9347,106.3453,Hồng Ân
193,Siyabuswa,ZA,79.36,clear sky,-25.1132,29.0445,Uluju properties
196,East London,ZA,79.74,clear sky,-33.0153,27.9116,Tu Casa
197,Puerto Ayacucho,VE,74.71,overcast clouds,5.6639,-67.6236,Posada Turistica Manapiare
202,Mongoumba,CF,86.49,overcast clouds,3.6415,18.5936,
203,Axim,GH,80.87,broken clouds,4.8699,-2.2405,Axim Beach Resort And Spa
205,Bambanglipuro,ID,77.32,scattered clouds,-7.95,110.2833,Puri Brata
207,Itoman,JP,82.78,broken clouds,26.1247,127.6694,Southern Beach Hotel & Resort Okinawa
208,Atuona,PF,77.04,moderate rain,-9.8,-139.0333,Villa Enata
210,Mahebourg,MU,70.25,shower rain,-20.4081,57.7,Shandrani Beachcomber Resort & Spa
211,Lagoa,PT,71.44,overcast clouds,39.05,-27.9833,Casa Das Faias
213,Tomatlan,MX,75.78,overcast clouds,19.9333,-105.25,El Salvial
214,Felanitx,ES,86.95,clear sky,39.4696,3.1483,Petit Hotel Hostatgeria Sant Salvador
215,Bengkulu,ID,77.97,light rain,-3.8004,102.2655,Grage Hotel Bengkulu
216,Sunyani,GH,82.2,light rain,7.3399,-2.3268,Nass Lodge
217,Toamasina,MG,73.4,scattered clouds,-18.1667,49.3833,Hotel H1
220,Raudeberg,NO,71.38,overcast clouds,61.9875,5.1352,Nordre Silda.
221,Dalianwan,CN,75.24,light rain,39.0286,121.695,Huanghai Hotel
224,Moerai,PF,73.24,clear sky,-22.4333,-151.3333,Le Manotel
225,Saquarema,BR,73.54,broken clouds,-22.92,-42.5103,Hotel Fazenda Sol e Lua
226,Aquin,HT,83.75,scattered clouds,18.2833,-73.4,Asheev Beach
231,Sobolevo,RU,76.14,overcast clouds,54.4299,31.8996,
233,Oni,GE,78.78,overcast clouds,42.5794,43.4425,countryside house
234,Loiza,PR,87.78,scattered clouds,18.4313,-65.8802,Malibu Beachfront
236,Meulaboh,ID,80.83,heavy intensity rain,4.1363,96.1285,Kost Pria
238,Ciudad Bolivar,VE,83.98,overcast clouds,8.1222,-63.5497,Hotel Edi
243,Adeje,ES,75.69,broken clouds,28.1227,-16.726,Gran Tacande Wellness & Relax
245,Dawei,MM,78.82,broken clouds,14.0833,98.2,Hotel Dawei
246,Palmas,BR,84.07,clear sky,-10.2128,-48.3603,Hotel Lago da Palma
249,Karratha,AU,70.3,light rain,-20.7377,116.8463,ibis Styles Karratha
250,Yebaishou,CN,71.19,overcast clouds,41.3975,119.6408,Siji Home
252,The Valley,AI,86.14,scattered clouds,18.217,-63.0578,CeBlue Villas & Beach Resort
253,Reconquista,AR,76.89,broken clouds,-29.15,-59.65,Grand Hotel
255,Saint Anthony,US,73.33,mist,45.0205,-93.218,"Holiday Inn Express Roseville-St. Paul, an IHG Hotel"
256,Nakamura,JP,79.56,moderate rain,32.9833,132.9333,Hotel Crown Hills Nakamura
259,Ingham,US,76.95,clear sky,42.6,-84.3833,Sunset Place
260,Victoria,HK,87.33,overcast clouds,22.2855,114.1577,Mini Hotel Central
261,Galle,LK,78.22,light rain,6.0367,80.217,Amangalla
264,Orsha,BY,77.22,overcast clouds,54.5153,30.4053,Rudakovo Hotel
265,San Patricio,US,87.89,clear sky,28.017,-97.5169,"Motel 6 Sinton, TX"
267,Yumen,CN,80.47,clear sky,40.2833,97.2,
268,Charleston,US,86.09,clear sky,32.7766,-79.9309,The Mills House Wyndham Grand Hotel
269,Takoradi,GH,81.39,overcast clouds,4.8845,-1.7554,Raybow International Hotel
278,Pemba,MZ,77.7,broken clouds,-12.974,40.5178,Guesthouse Samotina
282,Kloulklubed,PW,75.7,light rain,7.0419,134.2556,Storyboard Beach Resort
283,Kathu,TH,82.22,broken clouds,7.9178,98.3332,Novotel Phuket Resort
285,Biltine,TD,88.79,broken clouds,14.5333,20.9167,Hôtel Trois Étoiles de Biltine
288,Cap Malheureux,MU,70.47,moderate rain,-19.9842,57.6142,Pereybere Hotel & Spa
289,Fenelon Falls,CA,74.57,broken clouds,44.5334,-78.7496,Road 121 Motel
290,Katsuura,JP,82.51,overcast clouds,35.1333,140.3,Katsuura Hotel Mikazuki
291,Naze,JP,78.78,broken clouds,28.3667,129.4833,Amami Port Tower Hotel
293,Calera,US,81.41,clear sky,33.1029,-86.7536,Quality Inn Calera I-65 Exit 231
295,Lamu,KE,79.02,broken clouds,-2.2717,40.902,Lamu House
296,Meadow Lake,US,74.73,clear sky,34.8014,-106.5436,TumbleWeed RV Park
297,Santa Rosa,PH,84.11,broken clouds,14.3122,121.1114,Erlyn’s Sta Rosa City Home
301,Torbay,CA,72.88,broken clouds,47.6666,-52.7314,Gallows Cove
302,Ponta Delgada,PT,72.32,broken clouds,37.7333,-25.6667,Vila Nova Hotel
303,Olinda,BR,82.13,few clouds,-8.0089,-34.8553,Hotel Albergue de Olinda
305,Los Llanos De Aridane,ES,73.15,broken clouds,28.6585,-17.9182,Valle Aridane
307,Tsabong,BW,83.48,clear sky,-26.0217,22.401,Springbok Motel
308,Santa Maria,BR,76.3,clear sky,-29.6842,-53.8069,Hotel Morotin
309,Caravelas,BR,75.97,few clouds,-17.7125,-39.2481,Pousada dos Navegantes
310,Hamilton,US,81.99,clear sky,39.1834,-84.5333,Six Acres Bed & Breakfast
311,Wilmington,US,82.94,clear sky,34.2257,-77.9447,"Hotel Ballast Wilmington, Tapestry Collection by Hilton"
312,Saint-Francois,FR,73.42,clear sky,46.4154,3.9054,Manoir Du Bonheur
314,Inirida,CO,76.96,overcast clouds,3.8653,-67.9239,Fuente del Guania Hotel de Lujo
315,Visby,SE,71.06,scattered clouds,57.6409,18.296,Best Western Solhem Hotel Visby
321,Sinop,TR,72.03,overcast clouds,41.7711,34.8709,
323,Miracema Do Tocantins,BR,87.6,clear sky,-9.5618,-48.3967,Miami Apart Hotel
324,Aanekoski,FI,70.68,overcast clouds,62.6946,25.818,Tervahovi
327,Kirov,RU,72.93,broken clouds,58.5966,49.6601,Art Hotel
330,Anloga,GH,82.62,light rain,5.7947,0.8973,Pin Drop Hotel
331,San Javier,ES,89.64,scattered clouds,37.8063,-0.8374,Hotel Mar Menor
334,Rio Claro,BR,75.02,clear sky,-22.4114,-47.5614,Hotel Vivendas Rio Claro by Atlantica
336,Slubice,PL,77.38,broken clouds,52.3509,14.5607,City Residence Hotel Frankfurt Oder
337,Ixtapa,MX,77.23,scattered clouds,20.7,-105.2,Hotel Plaza Providencia
338,Shingu,JP,78.91,overcast clouds,33.7333,135.9833,Shingu UI Hotel
340,Dongsheng,CN,70.39,clear sky,39.8161,109.9776,Crowne Plaza Ordos
341,Tagusao,PH,80.74,overcast clouds,9.1924,117.8141,Toledo
342,Vardo,NO,70.0,clear sky,70.3705,31.1107,Vardø Hotel AS
344,League City,US,89.24,few clouds,29.5075,-95.0949,Hampton Inn & Suites Houston/League City
345,Shimoda,JP,80.82,overcast clouds,34.6667,138.95,Shimoda Tokyu Hotel
347,Alofi,NU,73.29,overcast clouds,-19.0595,-169.9187,Taloa Heights
352,Shiraoi,JP,73.58,overcast clouds,42.55,141.35,Pirika Rera Hotel
355,Torgelow,DE,77.5,broken clouds,53.6333,14.0167,Hotels Zum Forsthaus
361,Guiratinga,BR,84.31,clear sky,-16.3494,-53.7583,Hotel Angra do Cerrado - Guiratinga MT
362,Tirumullaivasal,IN,86.09,overcast clouds,11.2333,79.8333,My own house
364,Aksu,CN,83.97,scattered clouds,41.1231,80.2644,Pudong Holiday Hotel
368,Tromso,NO,75.85,clear sky,69.6496,18.957,"Radisson Blu Hotel, Tromsø"
370,Jamame,SO,80.15,overcast clouds,0.0722,42.7506,
374,Matara,LK,77.38,overcast clouds,5.9485,80.5353,Amaloh Boutique Resort
377,Ludza,LV,75.58,overcast clouds,56.55,27.7167,"Viesnīca ""Ludza"""
378,Yarada,IN,86.32,broken clouds,17.65,83.2667,Jeevan
379,Quatre Cocos,MU,70.09,moderate rain,-20.2078,57.7625,Sunrise Attitude Hotel
380,Lae,PG,75.36,overcast clouds,-6.7221,146.9847,Phils Hotel
384,Buala,SB,78.42,overcast clouds,-8.145,159.5921,Maringe Lagoon Lodge
387,Lins,BR,79.72,clear sky,-21.6786,-49.7425,Cristal Palace Hotel
389,Touros,BR,79.7,broken clouds,-5.1989,-35.4608,INN NEW HORIZON
390,Yenagoa,NG,79.38,light rain,4.9247,6.2642,Aridolf Resort Wellness and Spa
395,Imuris,MX,74.52,overcast clouds,30.7833,-110.8667,Hotel toro Hereford
397,El Dorado,US,75.22,clear sky,38.7666,-120.5177,South Fork Group Campground
399,Basco,PH,83.91,overcast clouds,20.4487,121.9702,Nathaniel's Lodge
400,Mawlaik,MM,79.41,overcast clouds,23.6333,94.4167,AKZ Guest House
401,Halifax,CA,73.53,overcast clouds,44.6453,-63.5724,Hotel Halifax
402,Saint-Philippe,RE,72.99,broken clouds,-21.3585,55.7679,"Chambres d'hôte ""La Trinité"""
403,Goiatuba,BR,75.88,clear sky,-18.0125,-49.3547,Hotel Barrocos
404,Pokhara,NP,73.15,overcast clouds,28.2333,83.9833,Butterfly Lodge
406,Grand-Santi,GF,85.87,scattered clouds,4.25,-54.3833,Hotel La Villa Couacou
408,Pringsewu,ID,75.67,clear sky,-5.3582,104.9744,Urban Style by Front One
410,Gizo,SB,80.22,light rain,-8.103,156.8419,Imagination Island
412,Arrecife,ES,80.58,scattered clouds,28.963,-13.5477,Hotel Lancelot
414,Hasaki,JP,77.4,overcast clouds,35.7333,140.8333,Hotel Sunrise Choshi
415,Fort Madison,US,79.72,overcast clouds,40.6298,-91.3151,Kingsley Inn
417,Ayagoz,KZ,74.53,overcast clouds,47.9714,80.4392,Gostinitsa Nur
418,Abiramam,IN,85.32,overcast clouds,9.4667,78.45,Shamsudeen Arafath home
420,Lazaro Cardenas,MX,77.9,overcast clouds,17.9583,-102.2,quinta antigua
421,Soderhamn,SE,71.74,overcast clouds,61.3037,17.0592,Best Western Hotell SöderH
425,Streletskoye,RU,86.81,clear sky,50.6371,36.4729,Red House
426,Zaraza,VE,80.31,broken clouds,9.3503,-65.3245,Hotel Zaraza
427,Coxim,BR,89.26,clear sky,-18.5067,-54.76,Hotel Avenida
428,Ambon,ID,75.34,light rain,-3.6954,128.1814,Swiss-Belhotel Ambon
430,Oyem,GA,75.36,light rain,1.5995,11.5793,Commissariat de police
432,Gamba,GA,76.37,broken clouds,-2.65,10.0,
433,Aguimes,ES,75.83,few clouds,27.9054,-15.4461,Hotel Villa de Aguimes
434,Pak Phanang,TH,83.77,scattered clouds,8.3511,100.202,Green Park Inn Hotel
435,Camargo,MX,76.48,overcast clouds,27.6667,-105.1667,Hotel Santa Fe
437,Epe,NG,75.49,light rain,6.5841,3.9834,MAGVILLE HOTEL
440,Panacan,PH,82.42,overcast clouds,9.2463,118.4082,Mom's Place Resort
441,Astaneh-Ye Ashrafiyeh,IR,89.53,clear sky,37.2596,49.9444,Hotel Farrghi
443,Timizart,DZ,89.58,overcast clouds,36.8,4.2667,yefssah restaurant
444,Urumqi,CN,83.35,clear sky,43.801,87.6005,Hua Ling Grand Hotel Urumqi
445,Pandan,PH,81.55,overcast clouds,14.0453,124.1694,Bonifacio Lodge
447,Beloha,MG,72.48,clear sky,-25.1667,45.05,
448,Nieuw Amsterdam,SR,80.76,few clouds,5.8833,-55.0833,Globe Hotel
449,Bubaque,GW,79.65,scattered clouds,11.2833,-15.8333,"Casa Dora, Bubaque"
450,Garden City,US,76.98,haze,42.3256,-83.331,Quality Inn & Suites Banquet Center
451,Goure,NE,88.02,overcast clouds,13.9835,10.2704,
453,Balikpapan,ID,78.13,few clouds,-1.2675,116.8289,ibis Balikpapan
457,Bathsheba,BB,86.61,scattered clouds,13.2167,-59.5167,Atlantis Hotel
460,Samarai,PG,78.12,overcast clouds,-10.6167,150.6667,Nuli Sapi
461,Solwezi,ZM,81.18,clear sky,-12.1688,26.3894,Country Lodge Solwezi
462,Safranbolu,TR,73.13,broken clouds,41.2508,32.6942,Canbulat & Canbulat Tourism
464,Bojonegoro,ID,77.22,clear sky,-7.1502,111.8817,Dewarna Hotel & Convention
467,Mayo,US,80.37,overcast clouds,38.8876,-76.5119,Resorts Resource Group International
468,Mattru,SL,83.17,overcast clouds,7.6244,-11.8332,"Mondkor Town, Bagbo Chiefdom, Bo District"
470,Urengoy,RU,71.8,few clouds,65.9667,78.3667,Gostinnitsa Medveditsa
471,Santa Fe,AR,73.0,overcast clouds,-31.6333,-60.7,Conquistador Hotel
473,Brufut,GM,86.09,thunderstorm,13.3814,-16.7518,Sheraton Gambia Hotel Resort & Spa
474,Sherbrooke,CA,73.69,overcast clouds,45.4001,-71.8991,Grand Times Hotel Sherbrooke
475,Vanimo,PG,77.52,overcast clouds,-2.6741,141.3028,Vahmoneh Lodge Vanimo
476,Namibe,AO,72.0,overcast clouds,-15.1961,12.1522,Hotel Chik Chik Namibe
478,Tuburan,PH,82.71,overcast clouds,6.6439,122.2736,GT Site
483,Guangyuan,CN,71.04,overcast clouds,32.442,105.823,Guangyuan Poetry Hotel
486,Saint-Joseph,RE,71.98,scattered clouds,-21.3667,55.6167,"""Plantation Bed and Breakfast"
487,Lingao,CN,84.58,light rain,19.9103,109.6859,Lingao Ditai Inn
488,Dakar,SN,88.68,scattered clouds,14.6937,-17.4441,Redface Studios Meublés
489,Zhangye,CN,78.58,overcast clouds,38.9342,100.4517,Zhangye Lvzhou Holiday Inn
490,Key West,US,89.6,few clouds,24.5557,-81.7826,Fairfield Inn & Suites by Marriott Key West
491,Daru,PG,76.03,overcast clouds,-9.0763,143.2092,Daru Lodge
496,Goundi,TD,80.37,overcast clouds,9.3627,17.366,
497,Sidi Ali,DZ,80.74,clear sky,36.0998,0.4206,الغابة الترفيهية بورحمة
498,Luganville,VU,74.98,overcast clouds,-15.5333,167.1667,The Espiritu Hotel
501,Casablanca,MA,79.02,scattered clouds,33.5928,-7.6192,فندق البيت المغربي كازبلانكا
502,Las Palmas,ES,74.19,scattered clouds,28.4204,-14.0131,Casillas De Morales 59.
503,Belmonte,BR,75.7,overcast clouds,-15.8631,-38.8828,Pousada Monte Carmelo O Pão
505,Kahului,US,74.46,clear sky,20.8947,-156.47,Maui Seaside Hotel
508,Morondava,MG,76.8,clear sky,-20.2833,44.2833,La Case Bambou
509,Omboue,GA,78.82,broken clouds,-1.5746,9.2618,Hotel Olako
510,Dingle,PH,76.98,light rain,10.9995,122.6711,SEGAYA PROPERTY
515,Oranjestad,AW,84.15,broken clouds,12.524,-70.027,Divi Village Golf & Beach Resort
518,Santa Isabel Do Rio Negro,BR,75.97,overcast clouds,-0.4139,-65.0192,Hotel GSA
520,Palauig,PH,80.91,moderate rain,15.435,119.9045,Gilbert Resuello
521,Changji,CN,86.79,clear sky,44.0167,87.3167,Lvye Holiday Resort
523,Bose,IT,84.51,clear sky,45.4612,8.0137,Locanda Borgo Antico
525,Tezu,IN,78.55,overcast clouds,27.9167,96.1667,Circuit House
526,Danshui,CN,87.03,overcast clouds,22.7984,114.4672,Grand Skylight International Hotel Huizhou
527,Maceio,BR,80.04,broken clouds,-9.6658,-35.7353,Poutur Pousada
528,Diveyevo,RU,86.79,overcast clouds,55.0433,43.2418,Diveyevskaya Sloboda
532,Kilimatinde,TZ,84.72,few clouds,-5.85,34.95,
533,Hatillo,PR,89.1,clear sky,18.4863,-66.8254,Hotel Parador El Buen Cafe
534,Corrente,BR,88.97,clear sky,-3.7367,-43.3394,Chapadinhense Hotel
536,Gorontalo,ID,74.64,heavy intensity rain,0.5412,123.0595,Maqna Hotel by Prasanthi
539,Yatou,CN,71.65,clear sky,37.15,122.3833,GreenTree Hotel Rongcheng Bus Station
540,Harper,LR,81.09,light rain,4.375,-7.7169,Screensaver
541,Mogadishu,SO,80.47,scattered clouds,2.0371,45.3438,Hotel Juba
543,Puerto Escondido,MX,79.63,scattered clouds,15.85,-97.0667,Aldea del Bazar Hotel and Spa
546,Labuan,MY,82.56,few clouds,5.2767,115.2417,Tiara Labuan Hotel
551,Sunrise Manor,US,89.31,smoke,36.2111,-115.0731,Comfort Inn & Suites Las Vegas - Nellis
552,Chandil,IN,83.52,overcast clouds,22.9667,86.05,Lambu Hotel
553,Isiro,CD,75.43,moderate rain,2.7739,27.616,Guest House Hewa Bora
556,Boa Vista,BR,80.58,broken clouds,2.8197,-60.6733,Aipana Plaza Hotel
558,Jaciara,BR,87.49,clear sky,-15.9653,-54.9683,Taba Hotel
559,Carupano,VE,84.06,broken clouds,10.6678,-63.2585,Hotel La dorada
561,Findlay,US,79.39,clear sky,41.0442,-83.6499,Drury Inn & Suites Findlay
562,Tabou,CI,80.19,light rain,4.423,-7.3528,hotêl doufoulougou
563,Mayumba,GA,74.39,overcast clouds,-3.432,10.6554,LIKWALE LODGE
565,Trincomalee,LK,83.26,overcast clouds,8.5711,81.2335,Welcombe Hotel
568,Shentala,RU,83.8,few clouds,54.45,51.4833,
569,La Romana,DO,84.56,few clouds,18.4273,-68.9728,Casa de Campo Resort and Villas
570,Storm Lake,US,71.29,clear sky,42.6411,-95.2097,King's Pointe Resort
571,Pafos,CY,89.51,few clouds,34.7667,32.4167,Elysium Hotel
574,Madras,IN,87.78,few clouds,13.0878,80.2785,City home
575,Batticaloa,LK,81.59,overcast clouds,7.7102,81.6924,Grand Star Guest House
577,Middelburg,ZA,72.64,clear sky,-25.7751,29.4648,Oregon Place Guest House
578,Savalou,BJ,77.22,overcast clouds,7.9281,1.9756,Hotel F&F
583,Barinitas,VE,78.28,overcast clouds,8.7622,-70.4111,Hotel Cacao suit
584,Yiyang,CN,82.08,light rain,28.5892,112.3283,Tongcheng International Hotel
585,Dwarka,IN,82.65,overcast clouds,22.2394,68.9678,Hotel Narayan Avezika Comfort
586,Pochutla,MX,78.62,broken clouds,15.7432,-96.4661,Hotel Posada San Jose
587,Makakilo City,US,75.52,clear sky,21.3469,-158.0858,Marriott's Ko Olina Beach Club
589,Bogalusa,US,87.69,clear sky,30.791,-89.8487,Traveler's Rest Motel
590,Mana,GF,83.97,few clouds,5.6592,-53.7767,LE SAMANA
595,Iralaya,HN,86.09,overcast clouds,15.0,-83.2333,Iglesia morava renovada
599,Porbandar,IN,82.67,broken clouds,21.6422,69.6093,Lords Inn Porbandar
600,Krasnoselkup,RU,70.59,few clouds,65.7,82.4667,Krasnosel'kupnefteprodukt
601,Acapulco,MX,80.42,broken clouds,16.8634,-99.8901,HS Hotsson Smart Acapulco
603,Sibu,MY,77.31,light rain,2.3,111.8167,RH HOTEL (4 Star)
605,Sumbe,AO,76.86,broken clouds,-11.2061,13.8437,Hotel Ritz Sumbe
606,Penarroya-Pueblonuevo,ES,87.46,clear sky,38.3,-5.2667,Casa Rural Los Miraderos De Cristina
607,Conde,BR,81.86,broken clouds,-7.2597,-34.9075,Pousada Beija Flor
609,Karaton,ID,80.76,scattered clouds,-6.3424,106.1045,Parkir Mobil Wisata CAS Water Park
614,Vila Franca Do Campo,PT,72.01,few clouds,37.7167,-25.4333,Pestana Bahia Praia
616,Paka,MY,80.53,broken clouds,4.6374,103.4368,RUMBIA RESORT VILLA
617,Kasangulu,CD,86.94,clear sky,-4.5911,15.1708,Hôtel le Relais
618,Champerico,GT,85.77,overcast clouds,14.3,-91.9167,"Hotel y restaurante ""El Diamante"""
620,Mahanoro,MG,70.61,clear sky,-19.9,48.8,BUNGALOW MAHAMANINA
621,Lugoba,TZ,81.03,overcast clouds,-6.45,38.3333,
622,Diapaga,BF,89.65,overcast clouds,12.0708,1.7889,
623,Itarema,BR,88.23,clear sky,-2.9248,-39.9167,"Sea Lounge! Bar, Club & Restaurant"
624,Ocos,GT,85.73,overcast clouds,14.5094,-92.1933,Auto Hotel El Soñador
625,Placido De Castro,BR,89.94,few clouds,-10.3353,-67.1856,Hotel Carioca
627,Inhambane,MZ,72.66,clear sky,-23.865,35.3833,Oceano
628,Labuhan,ID,80.08,clear sky,-6.8844,112.2051,PT PPI Lamongan Tambak C
629,Mahajanga,MG,80.62,few clouds,-15.7167,46.3167,Restaurant Greedy Coco Lodge Majunga
630,Zvishavane,ZW,77.99,clear sky,-20.3267,30.0665,Hotel Boutique Runde
631,Olot,ES,82.38,scattered clouds,42.181,2.4901,Hotel Riu Fluvià
632,Coahuayana,MX,81.88,overcast clouds,18.7333,-103.6833,El rranchito michuacan de ocampos
633,Lere,NG,78.73,light rain,10.387,8.5726,
635,Arenapolis,BR,89.8,clear sky,-14.4503,-56.8461,Mato Grosso Hotel
639,Tucuma,BR,87.4,clear sky,-0.1833,-50.05,
640,Coatzacoalcos,MX,76.91,smoke,18.15,-94.4167,Parque Inn Hotel & Suites
641,Mayna,RU,87.15,scattered clouds,54.1135,47.6231,Gostinnitsa
642,Medea,DZ,75.65,overcast clouds,36.2642,2.7539,Hôtel M'Sallah
643,Livenka,RU,84.07,light rain,50.4491,38.2959,
644,Manuk Mangkaw,PH,83.26,overcast clouds,4.8,119.85,
645,Baillif,GP,85.5,scattered clouds,16.0202,-61.7463,Hôtel Saint-Georges
647,Wattegama,LK,81.52,broken clouds,6.7989,81.4808,
649,Floro,NO,72.3,scattered clouds,61.5996,5.0328,Kinn Hotell Florø
651,Stephenville,US,81.18,clear sky,32.2207,-98.2023,La Quinta Inn & Suites by Wyndham Stephenville
653,Ponnani,IN,78.12,broken clouds,10.767,75.9252,Rouba Residency
654,Kabare,CD,73.65,overcast clouds,-2.4683,28.8242,Hôtel Panorama
655,Saint-Denis,FR,72.99,few clouds,48.9167,2.3333,ibis budget Paris Porte de Montmartre
656,Hambantota,LK,82.74,scattered clouds,6.1241,81.1185,Bungalow 63
657,Namatanai,PG,78.55,overcast clouds,-3.6667,152.4333,Seagulls Inn Namatani
658,Acarau,BR,88.05,clear sky,-2.8856,-40.12,castelo pizzaria
659,Struga,MK,86.02,clear sky,41.1781,20.6761,Hotel Drim
660,Porto Novo,BJ,82.22,light rain,6.4965,2.6036,Tour Eiffel Hotel Benin
662,Jinji,CN,82.4,overcast clouds,23.2281,110.8261,
663,Totness,SR,78.33,overcast clouds,5.8833,-56.3167,STAATS LOGEERGEBOUW TOTNESS
664,Hobbs,US,77.34,clear sky,32.7026,-103.136,Best Western Executive Inn
666,Bantou,CN,82.62,overcast clouds,26.2151,117.4893,
667,Kilindoni,TZ,77.54,scattered clouds,-7.9139,39.6668,Bustani B&B
668,Manakara,MG,70.54,clear sky,-22.1333,48.0167,La Residence Manakara
669,Shizunai,JP,70.12,scattered clouds,42.3339,142.3669,Shizunai Eclipse Hotel
670,Pietersburg,ZA,74.25,clear sky,-23.9045,29.4688,Bed and Breakfast @ Reggies B&B
671,Uruguaiana,BR,75.2,clear sky,-29.7547,-57.0883,Fares Turis Hotel
672,Broome,US,79.05,clear sky,42.2506,-75.833,Chenango Valley State Park
674,Russell,US,82.06,clear sky,32.3502,-85.1999,Macs
676,Lagunas,PE,83.97,clear sky,-5.2269,-75.6753,Hospedaje Eco
677,Nioro,GM,87.33,broken clouds,13.35,-15.75,
678,Chipinge,ZW,73.49,clear sky,-20.1883,32.6236,Chipinge Breeze Lodge
679,Mangrol,IN,81.84,overcast clouds,21.1167,70.1167,Hotel The Royal Honours
680,Tari,NG,88.34,overcast clouds,12.4086,4.4914,
682,Jobat,IN,81.28,overcast clouds,22.4167,74.5667,Sandeep john's house
683,Caldas Novas,BR,76.41,clear sky,-17.7417,-48.625,Best Western Suites Le Jardin Caldas Novas
